[
  {"id":"hwy100","name":"Highway 100 Boat Launch","river":"Harpeth River","tdec_site_id":"HARPE062.0DA","hydrocode":"05130204","river_mile":"62","tdec_river_segment_id":"TN05130204009_2000","lat":36.054387,"lon":-86.928716,"base_gauge_id":"g_hwy100"},
  {"id":"hwy70","name":"Hwy 70 Boat Launch","river":"Harpeth River","tdec_site_id":"HARPE032.2CH","hydrocode":"05130204","river_mile":"32.2","tdec_river_segment_id":"TN05130204001_1000","lat":36.123683,"lon":-87.099002,"base_gauge_id":"g_hwy70"},
  {"id":"jackson","name":"Jackson Blvd","river":"Richland Creek","tdec_site_id":"RICHL006.8DA","hydrocode":"05130202","river_mile":"6.4*","tdec_river_segment_id":"TN05130202314_2000","lat":36.112737,"lon":-86.862464,"base_gauge_id":"g_jblvd"},
  {"id":"lewisburg","name":"Lewisburg Pike","river":"Harpeth River","tdec_site_id":"HARPE089.1WI","hydrocode":"05130204","river_mile":"89.1","tdec_river_segment_id":"TN05130204016_2000","lat":35.909429,"lon":-86.855796,"base_gauge_id":"g_lpike"},
  {"id":"millgreenway","name":"Mill Creek Greenway","river":"Mill Creek","tdec_site_id":"MILL016.5DA","hydrocode":"05130202","river_mile":"17*","tdec_river_segment_id":"TN05130202007_4000","lat":36.012874,"lon":-86.68505,"base_gauge_id":"g_mcreek"},
  {"id":"moran","name":"Moran Road Bridge","river":"Harpeth River","tdec_site_id":"HARPE068.4WI","hydrocode":"05130204","river_mile":"68.4","tdec_river_segment_id":"TN05130204009_3000","lat":36.017164,"lon":-86.900035,"base_gauge_id":"g_hwy100"},
  {"id":"richland","name":"Richland Creek Greenway","river":"Richland Creek","tdec_site_id":"RICHL005.0DA","hydrocode":"05130202","river_mile":"5","tdec_river_segment_id":"TN05130202314_2000","lat":36.132171,"lon":-86.848484,"base_gauge_id":"g_jblvd"},
  {"id":"whitsett","name":"Whitsett Park","river":"Mill Creek","tdec_site_id":"MILL005.3DA","hydrocode":"05130202","river_mile":"5.5*","tdec_river_segment_id":"TN05130202007_2000","lat":36.118187,"lon":-86.72437,"base_gauge_id":"g_mcreek"},
  {"id":"browns","name":"Browns Creek - Battlemont Park","river":"West Fork Browns Creek","tdec_site_id":"WFBRO000.1DA","hydrocode":"05130202","river_mile":"0.1","tdec_river_segment_id":"TN05130202023_0300","lat":36.114163,"lon":-86.777017,"base_gauge_id":"g_browns"},
  {"id":"whites","name":"Whites Creek at Hartman Park","river":"Whites Creek","tdec_site_id":"WHITE005.7DA","hydrocode":"05130202","river_mile":"5.3*","tdec_river_segment_id":"TN05130202010_2000","lat":36.21208,"lon":-86.825409,"base_gauge_id":"g_whites"},
  {"id":"cumberland","name":"Cumberland River - Downtown Access","river":"Cumberland River","tdec_site_id":"CUMBE191.0DA","hydrocode":"05130202","river_mile":"191","tdec_river_segment_id":"TN05130202001_4000","lat":36.165491,"lon":-86.775769,"base_gauge_id":"g_cumberland"},
  {"id":"walterhill","name":"Walter Hill Dam Recreational Area","river":"Stones River","tdec_site_id":"EFSTO010.1RU","hydrocode":"05130203","river_mile":"10.1","tdec_river_segment_id":"TN05130203023_1000","lat":35.941533,"lon":-86.378029,"base_gauge_id":"g_stones"},
  {"id":"centerville","name":"Centerville River Park","river":"Duck River","tdec_site_id":"DUCK072.6HI","hydrocode":"06040003","river_mile":"72.6","tdec_river_segment_id":"TN06040003009_1000","lat":35.785137,"lon":-87.46056,"base_gauge_id":"g_duck"},
  {"id":"cottonwood","name":"Cottonwood - Del Rio Bridge","river":"West Harpeth River","tdec_site_id":null,"hydrocode":"05130204","river_mile":null,"tdec_river_segment_id":null,"lat":35.96453,"lon":-86.91859,"base_gauge_id":"g_hwy100"}
]
